[
  {
    "enhed": "Nykøbing F. Sygehus",
    "result": {
      "places": [
        {
          "formattedAddress": "Fjordvej 15, 4800 Nykøbing Falster, Denmark",
          "location": { "latitude": 54.7784529, "longitude": 11.8603309 },
          "displayName": { "text": "Nykøbing F Hospital", "languageCode": "en" }
        },
        {
          "formattedAddress": "Fjordvej 15, 4800 Nykøbing Falster, Denmark",
          "location": {
            "latitude": 54.777712699999995,
            "longitude": 11.8604435
          },
          "displayName": {
            "text": "Sjællands Universitetshospital, Nykøbing F.",
            "languageCode": "da"
          }
        }
      ]
    }
  },
  {
    "enhed": "Sygehus Lillebælt Vejle",
    "result": {
      "places": [
        {
          "formattedAddress": "Beriderbakken 4, 7100 Vejle, Denmark",
          "location": { "latitude": 55.7147255, "longitude": 9.5380937 },
          "displayName": { "text": "Vejle Sygehus", "languageCode": "en" }
        },
        {
          "formattedAddress": "Beriberbakken 4, 7100 Vejle, Denmark",
          "location": { "latitude": 55.7158363, "longitude": 9.5380623 },
          "displayName": { "text": "Sygehus Lillebælt", "languageCode": "da" }
        }
      ]
    }
  },
  {
    "enhed": "Regionshospitalet Randers",
    "result": {
      "places": [
        {
          "formattedAddress": "Skovlyvej 15, 8930 Randers, Denmark",
          "location": {
            "latitude": 56.470700799999996,
            "longitude": 10.049895399999999
          },
          "displayName": {
            "text": "Randers Regional Hospital",
            "languageCode": "en"
          }
        }
      ]
    }
  },
  {
    "enhed": "Hospitalsenheden Horsens",
    "result": {
      "places": [
        {
          "formattedAddress": "Sundvej 30, 8700 Horsens, Denmark",
          "location": { "latitude": 55.8637927, "longitude": 9.8725966 },
          "displayName": {
            "text": "Regionshospitalet Horsens",
            "languageCode": "da"
          }
        },
        {
          "formattedAddress": "Sundvej 30A Indgang A Destination A1, 8700 Horsens, Denmark",
          "location": { "latitude": 55.8637927, "longitude": 9.8725966 },
          "displayName": { "text": "Dagkirurgien", "languageCode": "da" }
        }
      ]
    }
  },
  {
    "enhed": "Sydvestjysk Sygehus Esbjerg",
    "result": {
      "places": [
        {
          "formattedAddress": "Finsensgade 35, 6700 Esbjerg, Denmark",
          "location": {
            "latitude": 55.473811399999995,
            "longitude": 8.4566942
          },
          "displayName": { "text": "Esbjerg Hospital", "languageCode": "en" }
        },
        {
          "formattedAddress": "Haraldsgade 7f, 6700 Esbjerg, Denmark",
          "location": { "latitude": 55.475163099999996, "longitude": 8.459156 },
          "displayName": {
            "text": "Sydvestjysk Sygehus Hvalen",
            "languageCode": "da"
          }
        },
        {
          "formattedAddress": "Østergade 76, 6700 Esbjerg, Denmark",
          "location": { "latitude": 55.47267, "longitude": 8.4573868 },
          "displayName": {
            "text": "Sydvestjysk Sygehus (Byg. J)",
            "languageCode": "da"
          }
        },
        {
          "formattedAddress": "Haraldsgade 12, 6700 Esbjerg, Denmark",
          "location": {
            "latitude": 55.474674699999994,
            "longitude": 8.4581091
          },
          "displayName": {
            "text": "Ny sengebygning - Bygning D - Sydvestjysk Sygehus",
            "languageCode": "da"
          }
        },
        {
          "formattedAddress": "Haraldsgade 7B, 6700 Esbjerg, Denmark",
          "location": { "latitude": 55.4746904, "longitude": 8.4600515 },
          "displayName": {
            "text": "Sydvestjysk Sygehus, Hørekliniken",
            "languageCode": "da"
          }
        },
        {
          "formattedAddress": "Haraldsgade 9, 6700 Esbjerg, Denmark",
          "location": {
            "latitude": 55.475264599999996,
            "longitude": 8.4586984
          },
          "displayName": {
            "text": "Sydvestjysk Sygehus Kapel",
            "languageCode": "da"
          }
        }
      ]
    }
  },
  {
    "enhed": "Nordsjællands Hospital",
    "result": {
      "places": [
        {
          "formattedAddress": "Frederikssundsvej 30, 3600 Frederikssund, Denmark",
          "location": {
            "latitude": 55.8487568,
            "longitude": 12.085162799999999
          },
          "displayName": {
            "text": "North Zealand Hospital - Frederikssund",
            "languageCode": "en"
          }
        },
        {
          "formattedAddress": "Bakkedraget 8, 3400 Hillerød, Denmark",
          "location": {
            "latitude": 55.932161099999995,
            "longitude": 12.3290074
          },
          "displayName": {
            "text": "Nordsjællands Hospital - Hillerød",
            "languageCode": "da"
          }
        },
        {
          "formattedAddress": "Favrholm Allé, 3400 Hillerød, Denmark",
          "location": { "latitude": 55.9094455, "longitude": 12.3044421 },
          "displayName": {
            "text": "Nyt Hospital Nordsjælland",
            "languageCode": "da"
          }
        },
        {
          "formattedAddress": "Dyrehavevej 29, 3400 Hillerød, Denmark",
          "location": {
            "latitude": 55.931157,
            "longitude": 12.325510099999999
          },
          "displayName": {
            "text": "North Zealand Hospital - Hillerød",
            "languageCode": "en"
          }
        },
        {
          "formattedAddress": "Dyrehavevej 29, 3400 Hillerød, Denmark",
          "location": { "latitude": 55.9308309, "longitude": 12.3287479 },
          "displayName": {
            "text": "Nordsjællands Hospital - indgang 7",
            "languageCode": "da"
          }
        },
        {
          "formattedAddress": "Frederikssundsvej 30, 3600 Frederikssund, Denmark",
          "location": { "latitude": 55.8488615, "longitude": 12.08521 },
          "displayName": { "text": "Blodprøvetagning", "languageCode": "da" }
        },
        {
          "formattedAddress": "Helsevej 07, 3400 Hillerød, Denmark",
          "location": {
            "latitude": 55.931612599999994,
            "longitude": 12.328199099999999
          },
          "displayName": {
            "text": "Nordsjællands Hospital opgang 8",
            "languageCode": "da"
          }
        }
      ]
    }
  },
  {
    "enhed": "Regionshospital Nordjylland",
    "result": {
      "places": [
        {
          "formattedAddress": "Aage Holms Vej 6, 9800 Hjørring, Denmark",
          "location": { "latitude": 57.45069429999999, "longitude": 9.9974432 },
          "displayName": {
            "text": "Regionshospital Nordjylland, Hjørring",
            "languageCode": "da"
          }
        },
        {
          "formattedAddress": "Barfredsvej 83, 9900 Frederikshavn, Denmark",
          "location": { "latitude": 57.446241, "longitude": 10.5333188 },
          "displayName": {
            "text": "Regionshospital Nordjylland",
            "languageCode": "da"
          }
        },
        {
          "formattedAddress": "Bispensgade 37, 9800 Hjørring, Denmark",
          "location": { "latitude": 57.45206839999999, "longitude": 9.9964626 },
          "displayName": {
            "text": "Region Hospital North Jutland Hjørring",
            "languageCode": "en"
          }
        },
        {
          "formattedAddress": "Hans Baghs Vej 25, 9990 Skagen, Denmark",
          "location": {
            "latitude": 57.719140700000004,
            "longitude": 10.5765798
          },
          "displayName": {
            "text": "Skagen arthritis and Rygcenter, Region Hospital North Jutland",
            "languageCode": "en"
          }
        },
        {
          "formattedAddress": "Barfredsvej 83, 9900 Frederikshavn, Denmark",
          "location": { "latitude": 57.4465456, "longitude": 10.5332335 },
          "displayName": {
            "text": "Frederikshavn Sygehus",
            "languageCode": "da"
          }
        },
        {
          "formattedAddress": "Havrevangen 1, 9000 Aalborg, Denmark",
          "location": { "latitude": 57.0353285, "longitude": 9.9450557 },
          "displayName": { "text": "Region Nordjylland", "languageCode": "da" }
        },
        {
          "formattedAddress": "Nørregade 77, 9700 Brønderslev, Denmark",
          "location": { "latitude": 57.277259, "longitude": 9.949437 },
          "displayName": {
            "text": "Region Hospital North Jutland, Neuro Unit North",
            "languageCode": "en"
          }
        }
      ]
    }
  },
  {
    "enhed": "Sygehus Lillebælt Kolding",
    "result": {
      "places": [
        {
          "formattedAddress": "Sygehusvej 24, 6000 Kolding, Denmark",
          "location": {
            "latitude": 55.5017591,
            "longitude": 9.484392699999999
          },
          "displayName": { "text": "Kolding Hospital", "languageCode": "en" }
        }
      ]
    }
  },
  {
    "enhed": "Sygehus Sønderjylland Aabenraa",
    "result": {
      "places": [
        {
          "formattedAddress": "Kresten Philipsens Vej 15, 6200 Aabenraa, Denmark",
          "location": {
            "latitude": 55.063062599999995,
            "longitude": 9.3771647
          },
          "displayName": {
            "text": "Sygehus Sønderjylland",
            "languageCode": "da"
          }
        }
      ]
    }
  },
  {
    "enhed": "Holbæk Sygehus",
    "result": {
      "places": [
        {
          "formattedAddress": "Smedelundsgade 60, 4300 Holbæk, Denmark",
          "location": {
            "latitude": 55.711344499999996,
            "longitude": 11.7170168
          },
          "displayName": { "text": "Holbæk Hospital", "languageCode": "en" }
        },
        {
          "formattedAddress": "Akacievej 3, 4300 Holbæk, Denmark",
          "location": { "latitude": 55.7102303, "longitude": 11.7169972 },
          "displayName": { "text": "Holbæk sygehus", "languageCode": "da" }
        }
      ]
    }
  },
  {
    "enhed": "Regionshospitalet Gødstrup",
    "result": {
      "places": [
        {
          "formattedAddress": "Hospitalsparken 15, 7400 Herning, Denmark",
          "location": { "latitude": 56.1571606, "longitude": 8.8906451 },
          "displayName": {
            "text": "Regionshospitalet Gødstrup",
            "languageCode": "da"
          }
        }
      ]
    }
  },
  {
    "enhed": "Amager og Hvidovre Hospital",
    "result": {
      "places": [
        {
          "formattedAddress": "Kettegård Alle 30, 2650 Hvidovre, Denmark",
          "location": {
            "latitude": 55.648779,
            "longitude": 12.470291999999999
          },
          "displayName": { "text": "Hvidovre Hospital", "languageCode": "en" }
        },
        {
          "formattedAddress": "Italiensvej 1, 2300 København, Denmark",
          "location": { "latitude": 55.65491300000001, "longitude": 12.620377 },
          "displayName": { "text": "Amager Hospital", "languageCode": "en" }
        }
      ]
    }
  },
  {
    "enhed": "Sjællands Universitetshospital",
    "result": {
      "places": [
        {
          "formattedAddress": "Sygehusvej 10, 4000 Roskilde, Denmark",
          "location": { "latitude": 55.6366952, "longitude": 12.0905537 },
          "displayName": { "text": "Roskilde Sygehus", "languageCode": "en" }
        },
        {
          "formattedAddress": "Lykkebækvej 1, 4600 Køge, Denmark",
          "location": { "latitude": 55.4782575, "longitude": 12.1662543 },
          "displayName": {
            "text": "Zealand University Hospital",
            "languageCode": "en"
          }
        },
        {
          "formattedAddress": "Vestermarksvej 11, 4000 Roskilde, Denmark",
          "location": { "latitude": 55.6344272, "longitude": 12.0911049 },
          "displayName": {
            "text": "Sjællands Universitetshospital , Roskilde, Neurofysiologisk Center",
            "languageCode": "da"
          }
        },
        {
          "formattedAddress": "Ny Østergade 16, 4000 Roskilde, Denmark",
          "location": {
            "latitude": 55.637955,
            "longitude": 12.091479699999999
          },
          "displayName": {
            "text": "Sjællands Universitetshospital, koncern økonomi, Indkøb",
            "languageCode": "da"
          }
        },
        {
          "formattedAddress": "Ny Østergade 12, 4000 Roskilde, Denmark",
          "location": { "latitude": 55.6381453, "longitude": 12.0911476 },
          "displayName": { "text": "Region Sjælland", "languageCode": "da" }
        }
      ]
    }
  },
  {
    "enhed": "Aalborg Universitetshospital - Thisted",
    "result": {
      "places": [
        {
          "formattedAddress": "Højtoftevej 2, 7700 Thisted, Denmark",
          "location": { "latitude": 56.9574873, "longitude": 8.6962645 },
          "displayName": {
            "text": "Aalborg Universitetshospital, Thisted",
            "languageCode": "en"
          }
        }
      ]
    }
  },
  {
    "enhed": "Sygehus Sønderjylland Sønderborg",
    "result": {
      "places": [
        {
          "formattedAddress": "Sydvang 1, 6400 Sønderborg, Denmark",
          "location": { "latitude": 54.916261, "longitude": 9.786268 },
          "displayName": {
            "text": "Sygehus Sønderjylland, Sønderborg",
            "languageCode": "da"
          }
        }
      ]
    }
  },
  {
    "enhed": "NordSjællands Hospital",
    "result": {
      "places": [
        {
          "formattedAddress": "Frederikssundsvej 30, 3600 Frederikssund, Denmark",
          "location": {
            "latitude": 55.8487568,
            "longitude": 12.085162799999999
          },
          "displayName": {
            "text": "North Zealand Hospital - Frederikssund",
            "languageCode": "en"
          }
        },
        {
          "formattedAddress": "Bakkedraget 8, 3400 Hillerød, Denmark",
          "location": {
            "latitude": 55.932161099999995,
            "longitude": 12.3290074
          },
          "displayName": {
            "text": "Nordsjællands Hospital - Hillerød",
            "languageCode": "da"
          }
        },
        {
          "formattedAddress": "Favrholm Allé, 3400 Hillerød, Denmark",
          "location": { "latitude": 55.9094455, "longitude": 12.3044421 },
          "displayName": {
            "text": "Nyt Hospital Nordsjælland",
            "languageCode": "da"
          }
        },
        {
          "formattedAddress": "Dyrehavevej 29, 3400 Hillerød, Denmark",
          "location": {
            "latitude": 55.931157,
            "longitude": 12.325510099999999
          },
          "displayName": {
            "text": "North Zealand Hospital - Hillerød",
            "languageCode": "en"
          }
        },
        {
          "formattedAddress": "Dyrehavevej 29, 3400 Hillerød, Denmark",
          "location": { "latitude": 55.9308309, "longitude": 12.3287479 },
          "displayName": {
            "text": "Nordsjællands Hospital - indgang 7",
            "languageCode": "da"
          }
        },
        {
          "formattedAddress": "Frederikssundsvej 30, 3600 Frederikssund, Denmark",
          "location": { "latitude": 55.8488615, "longitude": 12.08521 },
          "displayName": { "text": "Blodprøvetagning", "languageCode": "da" }
        },
        {
          "formattedAddress": "Helsevej 07, 3400 Hillerød, Denmark",
          "location": {
            "latitude": 55.931612599999994,
            "longitude": 12.328199099999999
          },
          "displayName": {
            "text": "Nordsjællands Hospital opgang 8",
            "languageCode": "da"
          }
        }
      ]
    }
  },
  {
    "enhed": "Bispebjerg og Frederiksberg Hospital",
    "result": {
      "places": [
        {
          "formattedAddress": "Bispebjerg Bakke 23, 2400 København, Denmark",
          "location": {
            "latitude": 55.7140142,
            "longitude": 12.540131299999999
          },
          "displayName": { "text": "Bispebjerg Hospital", "languageCode": "en" }
        },
        {
          "formattedAddress": "Nordre Fasanvej 57, 2000 Frederiksberg, Denmark",
          "location": { "latitude": 55.6853698, "longitude": 12.5252041 },
          "displayName": {
            "text": "Frederiksberg Hospital",
            "languageCode": "en"
          }
        }
      ]
    }
  },
  {
    "enhed": "Hospitalsenhed Midt",
    "result": {
      "places": [
        {
          "formattedAddress": "Heibergs Alle 5A, 8800 Viborg, Denmark",
          "location": { "latitude": 56.445566, "longitude": 9.4043735 },
          "displayName": { "text": "Hospitalsenhed Midt", "languageCode": "da" }
        }
      ]
    }
  },
  {
    "enhed": "OUH Svendborg Sygehus",
    "result": {
      "places": [
        {
          "formattedAddress": "Baagøes Alle 15, 5700 Svendborg, Denmark",
          "location": {
            "latitude": 55.055663599999995,
            "longitude": 10.6062096
          },
          "displayName": {
            "text": "University Hospital Svendborg Hospital",
            "languageCode": "en"
          }
        }
      ]
    }
  },
  {
    "enhed": "Herlev og Gentofte Hospital",
    "result": {
      "places": [
        {
          "formattedAddress": "Borgmester Ib Juuls Vej 1, 2730 Herlev, Denmark",
          "location": {
            "latitude": 55.730873499999994,
            "longitude": 12.4434474
          },
          "displayName": { "text": "Herlev Hospital", "languageCode": "en" }
        },
        {
          "formattedAddress": "Gentofte Hospitalsvej 1, 2900 Hellerup, Denmark",
          "location": { "latitude": 55.7388014, "longitude": 12.5469817 },
          "displayName": { "text": "Gentofte Hospital", "languageCode": "en" }
        }
      ]
    }
  },
  {
    "enhed": "Rigshospitalet",
    "result": {
      "places": [
        {
          "formattedAddress": "Blegdamsvej 9, 2100 København, Denmark",
          "location": {
            "latitude": 55.6960231,
            "longitude": 12.566562200000002
          },
          "displayName": { "text": "Rigshospitalet", "languageCode": "en" }
        },
        {
          "formattedAddress": "Valdemar Hansens Vej 13, 2600 Glostrup, Denmark",
          "location": { "latitude": 55.6703717, "longitude": 12.3892063 },
          "displayName": {
            "text": "Rigshospitalet - Glostrup",
            "languageCode": "da"
          }
        }
      ]
    }
  },
  {
    "enhed": "OUH Odense Universitetshospital",
    "result": {
      "places": [
        {
          "formattedAddress": "J. B. Winsløws Vej 4, 5000 Odense, Denmark",
          "location": { "latitude": 55.385103, "longitude": 10.369055 },
          "displayName": {
            "text": "Odense University Hospital",
            "languageCode": "en"
          }
        },
        {
          "formattedAddress": "Hestehaven 140, 5260 Odense, Denmark",
          "location": { "latitude": 55.3574864, "longitude": 10.4258946 },
          "displayName": { "text": "Nyt OUH", "languageCode": "da" }
        }
      ]
    }
  },
  {
    "enhed": "Næstved, Slagelse og Ringsted Sygehuse",
    "result": {
      "places": [
        {
          "formattedAddress": "Ringstedgade 61, 4700 Næstved, Denmark",
          "location": {
            "latitude": 55.237209899999996,
            "longitude": 11.7593448
          },
          "displayName": { "text": "Næstved Hospital", "languageCode": "en" }
        },
        {
          "formattedAddress": "Bøllingsvej 30, 4100 Ringsted, Denmark",
          "location": {
            "latitude": 55.4499731,
            "longitude": 11.791677799999999
          },
          "displayName": { "text": "Ringsted Sygehus", "languageCode": "da" }
        }
      ]
    }
  },
  {
    "enhed": "Landssjúkrahúsið, Torshavn, Færøerne",
    "result": {
      "places": [
        {
          "formattedAddress": "J.C. Svabosgøta 41, 49 100, Tórshavn 100, Faroe Islands",
          "location": { "latitude": 62.00244099999999, "longitude": -6.776468 },
          "displayName": {
            "text": "National Hospital of the Faroe Islands",
            "languageCode": "en"
          }
        }
      ]
    }
  },
  {
    "enhed": "Aalborg Universitetshospital",
    "result": {
      "places": [
        {
          "formattedAddress": "Reberbansgade 15, 9000 Aalborg, Denmark",
          "location": {
            "latitude": 57.0489756,
            "longitude": 9.912781899999999
          },
          "displayName": {
            "text": "Aalborg University Hospital North",
            "languageCode": "en"
          }
        },
        {
          "formattedAddress": "Mølleparkvej 10, 9000 Aalborg, Denmark",
          "location": { "latitude": 57.0382087, "longitude": 9.905782 },
          "displayName": {
            "text": "Aalborg University Hospital South",
            "languageCode": "en"
          }
        },
        {
          "formattedAddress": "Søndre Skovvej 3b, 9000 Aalborg, Denmark",
          "location": {
            "latitude": 57.0381376,
            "longitude": 9.908480400000002
          },
          "displayName": {
            "text": "Aalborg University Hospital",
            "languageCode": "en"
          }
        }
      ]
    }
  },
  {
    "enhed": "Aarhus Universitetshospital",
    "result": {
      "places": [
        {
          "formattedAddress": "Palle Juul-Jensens Blvd. 99, 8200 Aarhus, Denmark",
          "location": {
            "latitude": 56.191843999999996,
            "longitude": 10.1717607
          },
          "displayName": {
            "text": "Aarhus Universitetshospital",
            "languageCode": "en"
          }
        },
        {
          "formattedAddress": "Palle Juul-Jensens Blvd. 161, 8200 Aarhus, Denmark",
          "location": { "latitude": 56.1920892, "longitude": 10.1678923 },
          "displayName": {
            "text": "Aarhus University Hospital",
            "languageCode": "en"
          }
        },
        {
          "formattedAddress": "Nørrebrogade 44, 8000 Aarhus, Denmark",
          "location": {
            "latitude": 56.166167599999994,
            "longitude": 10.208834
          },
          "displayName": {
            "text": "Aarhus Universitetshospital, Århus Sygehus",
            "languageCode": "da"
          }
        },
        {
          "formattedAddress": "Palle Juul-Jensens Blvd. 99, 8200 Aarhus, Denmark",
          "location": {
            "latitude": 56.191916799999994,
            "longitude": 10.1721956
          },
          "displayName": {
            "text": "University of Aarhus",
            "languageCode": "en"
          }
        }
      ]
    }
  },
  {
    "enhed": "Bornholms Hospital",
    "result": {
      "places": [
        {
          "formattedAddress": "Ullasvej 8, 3700 Rønne, Denmark",
          "location": {
            "latitude": 55.0916693,
            "longitude": 14.707102599999999
          },
          "displayName": { "text": "Bornholms Hospital", "languageCode": "en" }
        }
      ]
    }
  }
]
